[
  {
    "Precinct":101,
    "Name":"Dailey Middle School",
    "Combined_Pcts":"114:115:116:119:138",
    "Address":"14000 Westall Street",
    "City":"Austin",
    "Start_Time":"7:00",
    "End_Time":"19:00",
    "Zip_Code":78725,
    "Latitude":30.242793,
    "Longitude":-97.58975
  },
  {
    "Precinct":102,
    "Name":"Copperfield Elementary School",
    "Combined_Pcts":"",
    "Address":"12135 Thompkins Drive",
    "City":"Austin",
    "Start_Time":"7:00",
    "End_Time":"19:00",
    "Zip_Code":78753,
    "Latitude":30.388295,
    "Longitude":-97.66011
  },
  {
    "Precinct":103,
    "Name":"Graham Elementary School",
    "Combined_Pcts":"108",
    "Address":"11211 Tom Adams Drive",
    "City":"Austin",
    "Start_Time":"7:00",
    "End_Time":"19:00",
    "Zip_Code":78753,
    "Latitude":30.37274,
    "Longitude":-97.6692
  },
  {
    "Precinct":104,
    "Name":"Legend Oaks Health Care - North Austin",
    "Combined_Pcts":"",
    "Address":"11020 Dessau Road",
    "City":"Austin",
    "Start_Time":"7:00",
    "End_Time":"19:00",
    "Zip_Code":78754,
    "Latitude":30.369667,
    "Longitude":-97.668827
  },
  {
    "Precinct":105,
    "Name":"Manor ISD Administration Building",
    "Combined_Pcts":"",
    "Address":"10335 Hwy 290 East",
    "City":"Manor",
    "Start_Time":"7:00",
    "End_Time":"19:00",
    "Zip_Code":78653,
    "Latitude":30.344621,
    "Longitude":-97.573528
  },
  {
    "Precinct":106,
    "Name":"Elgin High School",
    "Combined_Pcts":"",
    "Address":"14000 County Line Road",
    "City":"Elgin",
    "Start_Time":"7:00",
    "End_Time":"19:00",
    "Zip_Code":78621,
    "Latitude":30.366062,
    "Longitude":-97.403771
  },
  {
    "Precinct":107,
    "Name":"New Sweden Lutheran Church",
    "Combined_Pcts":"",
    "Address":"12809 New Sweden Church Road",
    "City":"Manor",
    "Start_Time":"7:00",
    "End_Time":"19:00",
    "Zip_Code":78653,
    "Latitude":30.405546,
    "Longitude":-97.486767
  },
  {
    "Precinct":109,
    "Name":"Parmer Lane Elementary School",
    "Combined_Pcts":"111",
    "Address":"1806 Parmer Lane",
    "City":"Austin",
    "Start_Time":"7:00",
    "End_Time":"19:00",
    "Zip_Code":78727,
    "Latitude":30.414372,
    "Longitude":-97.691717
  },
  {
    "Precinct":112,
    "Name":"Dessau Elementary School",
    "Combined_Pcts":"",
    "Address":"1501 Dessau Ridge Lane",
    "City":"Austin",
    "Start_Time":"7:00",
    "End_Time":"19:00",
    "Zip_Code":78754,
    "Latitude":30.401533,
    "Longitude":-97.643749
  },
  {
    "Precinct":113,
    "Name":"Wieland Elementary School",
    "Combined_Pcts":"",
    "Address":"900 Tudor House Road",
    "City":"Pflugerville",
    "Start_Time":"7:00",
    "End_Time":"19:00",
    "Zip_Code":78660,
    "Latitude":30.422273,
    "Longitude":-97.639275
  },
  {
    "Precinct":117,
    "Name":"Turner-Roberts Recreation Center",
    "Combined_Pcts":"120",
    "Address":"7201 Colony Loop Drive",
    "City":"Austin",
    "Start_Time":"7:00",
    "End_Time":"19:00",
    "Zip_Code":78724,
    "Latitude":30.300165,
    "Longitude":-97.636786
  },
  {
    "Precinct":121,
    "Name":"LBJ High School",
    "Combined_Pcts":"128:131:134",
    "Address":"7309 Lazy Creek Drive",
    "City":"Austin",
    "Start_Time":"7:00",
    "End_Time":"19:00",
    "Zip_Code":78724,
    "Latitude":30.3131,
    "Longitude":-97.65676
  },
  {
    "Precinct":122,
    "Name":"YMCA East Community Branch",
    "Combined_Pcts":"",
    "Address":"5315 Ed Bluestein Boulevard",
    "City":"Austin",
    "Start_Time":"7:00",
    "End_Time":"19:00",
    "Zip_Code":78723,
    "Latitude":30.292079,
    "Longitude":-97.662262
  },
  {
    "Precinct":123,
    "Name":"Murchison Elementary School",
    "Combined_Pcts":"",
    "Address":"2215 Kelly Lane",
    "City":"Pflugerville",
    "Start_Time":"7:00",
    "End_Time":"19:00",
    "Zip_Code":78660,
    "Latitude":30.467253,
    "Longitude":-97.586918
  },
  {
    "Precinct":124,
    "Name":"Carver Library and Museum Complex",
    "Combined_Pcts":"",
    "Address":"1161 Angelina Street",
    "City":"Austin",
    "Start_Time":"7:00",
    "End_Time":"19:00",
    "Zip_Code":78702,
    "Latitude":30.26968,
    "Longitude":-97.72418
  },
  {
    "Precinct":126,
    "Name":"David Chapel Portable",
    "Combined_Pcts":"",
    "Address":"2211 East MLK Jr. Boulevard",
    "City":"Austin",
    "Start_Time":"7:00",
    "End_Time":"19:00",
    "Zip_Code":78702,
    "Latitude":30.280221,
    "Longitude":-97.717517
  },
  {
    "Precinct":129,
    "Name":"Sims Elementary School",
    "Combined_Pcts":"",
    "Address":"1203 Springdale Road",
    "City":"Austin",
    "Start_Time":"7:00",
    "End_Time":"19:00",
    "Zip_Code":78721,
    "Latitude":30.279507,
    "Longitude":-97.686068
  },
  {
    "Precinct":130,
    "Name":"Memorial United Methodist Church",
    "Combined_Pcts":"118:133",
    "Address":"6100 Berkman Drive",
    "City":"Austin",
    "Start_Time":"7:00",
    "End_Time":"19:00",
    "Zip_Code":78723,
    "Latitude":30.316198,
    "Longitude":-97.692964
  },
  {
    "Precinct":132,
    "Name":"Pecan Springs Elementary School",
    "Combined_Pcts":"",
    "Address":"3100 Rogge Lane",
    "City":"Austin",
    "Start_Time":"7:00",
    "End_Time":"19:00",
    "Zip_Code":78723,
    "Latitude":30.30285,
    "Longitude":-97.676922
  },
  {
    "Precinct":135,
    "Name":"Messiah Lutheran Church",
    "Combined_Pcts":"",
    "Address":"5701 Cameron Road",
    "City":"Austin",
    "Start_Time":"7:00",
    "End_Time":"19:00",
    "Zip_Code":78723,
    "Latitude":30.315154,
    "Longitude":-97.701137
  },
  {
    "Precinct":136,
    "Name":"Pfluger Hall & Conference Center",
    "Combined_Pcts":"110:161",
    "Address":"203B East Pecan Street",
    "City":"Pflugerville",
    "Start_Time":"7:00",
    "End_Time":"19:00",
    "Zip_Code":78660,
    "Latitude":30.438009,
    "Longitude":-97.620285
  },
  {
    "Precinct":137,
    "Name":"Rowe Lane Elementary School",
    "Combined_Pcts":"163",
    "Address":"3112 Speidel Drive",
    "City":"Pflugerville",
    "Start_Time":"7:00",
    "End_Time":"19:00",
    "Zip_Code":78660,
    "Latitude":30.477194,
    "Longitude":-97.562628
  },
  {
    "Precinct":140,
    "Name":"Dobie Middle School",
    "Combined_Pcts":"139:141",
    "Address":"1200 East Rundberg Lane",
    "City":"Austin",
    "Start_Time":"7:00",
    "End_Time":"19:00",
    "Zip_Code":78753,
    "Latitude":30.354379,
    "Longitude":-97.680109
  },
  {
    "Precinct":142,
    "Name":"Travis County Airport Blvd Offices",
    "Combined_Pcts":"",
    "Address":"5501 Airport Boulevard",
    "City":"Austin",
    "Start_Time":"7:00",
    "End_Time":"19:00",
    "Zip_Code":78751,
    "Latitude":30.316062,
    "Longitude":-97.713196
  },
  {
    "Precinct":145,
    "Name":"Windermere Elementary School",
    "Combined_Pcts":"",
    "Address":"1100 Picadilly Drive",
    "City":"Pflugerville",
    "Start_Time":"7:00",
    "End_Time":"19:00",
    "Zip_Code":78660,
    "Latitude":30.46478,
    "Longitude":-97.642348
  },
  {
    "Precinct":148,
    "Name":"County Tax Office, Pflugerville",
    "Combined_Pcts":"146:160",
    "Address":"15822 Foothill Farms Loop",
    "City":"Pflugerville",
    "Start_Time":"7:00",
    "End_Time":"19:00",
    "Zip_Code":78660,
    "Latitude":30.44886,
    "Longitude":-97.65221
  },
  {
    "Precinct":149,
    "Name":"Reilly Elementary School",
    "Combined_Pcts":"",
    "Address":"405 Denson Drive",
    "City":"Austin",
    "Start_Time":"7:00",
    "End_Time":"19:00",
    "Zip_Code":78752,
    "Latitude":30.328359,
    "Longitude":-97.719923
  },
  {
    "Precinct":150,
    "Name":"Brookhollow Elementary School",
    "Combined_Pcts":"",
    "Address":"1200 North Railroad Avenue",
    "City":"Pflugerville",
    "Start_Time":"7:00",
    "End_Time":"19:00",
    "Zip_Code":78660,
    "Latitude":30.452447,
    "Longitude":-97.618074
  },
  {
    "Precinct":151,
    "Name":"Dottie Jordan Recreation Center",
    "Combined_Pcts":"",
    "Address":"2803 Loyola Lane",
    "City":"Austin",
    "Start_Time":"7:00",
    "End_Time":"19:00",
    "Zip_Code":78723,
    "Latitude":30.314251,
    "Longitude":-97.673548
  },
  {
    "Precinct":152,
    "Name":"Fiesta Mart Central",
    "Combined_Pcts":"",
    "Address":"3909 North IH 35",
    "City":"Austin",
    "Start_Time":"7:00",
    "End_Time":"19:00",
    "Zip_Code":78722,
    "Latitude":30.29642,
    "Longitude":-97.71764
  },
  {
    "Precinct":153,
    "Name":"Pioneer Crossing Elementary School",
    "Combined_Pcts":"",
    "Address":"11300 Samsung Boulevard",
    "City":"Austin",
    "Start_Time":"7:00",
    "End_Time":"19:00",
    "Zip_Code":78754,
    "Latitude":30.361804,
    "Longitude":-97.639875
  },
  {
    "Precinct":154,
    "Name":"Bluebonnet Trail Elementary School",
    "Combined_Pcts":"125:127",
    "Address":"11316 Farmhaven Road",
    "City":"Austin",
    "Start_Time":"7:00",
    "End_Time":"19:00",
    "Zip_Code":78754,
    "Latitude":30.351472,
    "Longitude":-97.618289
  },
  {
    "Precinct":156,
    "Name":"Virginia Brown Recreation Center",
    "Combined_Pcts":"",
    "Address":"7500 Blessing Avenue",
    "City":"Austin",
    "Start_Time":"7:00",
    "End_Time":"19:00",
    "Zip_Code":78752,
    "Latitude":30.33222,
    "Longitude":-97.69341
  },
  {
    "Precinct":164,
    "Name":"Barrington Elementary School",
    "Combined_Pcts":"",
    "Address":"400 Cooper Drive",
    "City":"Austin",
    "Start_Time":"7:00",
    "End_Time":"19:00",
    "Zip_Code":78753,
    "Latitude":30.360989,
    "Longitude":-97.695923
  },
  {
    "Precinct":202,
    "Name":"Red River Church",
    "Combined_Pcts":"206",
    "Address":"4425 Red River Street",
    "City":"Austin",
    "Start_Time":"7:00",
    "End_Time":"19:00",
    "Zip_Code":78751,
    "Latitude":30.304493,
    "Longitude":-97.719494
  },
  {
    "Precinct":203,
    "Name":"Boulder Ridge Community Room",
    "Combined_Pcts":"",
    "Address":"3300 Killingsworth Lane",
    "City":"Pflugerville",
    "Start_Time":"7:00",
    "End_Time":"19:00",
    "Zip_Code":78660,
    "Latitude":30.413271,
    "Longitude":-97.605355
  },
  {
    "Precinct":205,
    "Name":"River Oaks Elementary School",
    "Combined_Pcts":"",
    "Address":"12401 Scofield Farms Drive",
    "City":"Austin",
    "Start_Time":"7:00",
    "End_Time":"19:00",
    "Zip_Code":78758,
    "Latitude":30.408443,
    "Longitude":-97.68727
  },
  {
    "Precinct":207,
    "Name":"YMCA Northwest Branch",
    "Combined_Pcts":"",
    "Address":"5807 McNeil Drive",
    "City":"Austin",
    "Start_Time":"7:00",
    "End_Time":"19:00",
    "Zip_Code":78729,
    "Latitude":30.445658,
    "Longitude":-97.733881
  },
  {
    "Precinct":208,
    "Name":"University of Texas, Flawn Academic Center",
    "Combined_Pcts":"277",
    "Address":"2400 Inner Campus Drive (on the West Mall)",
    "City":"Austin",
    "Start_Time":"7:00",
    "End_Time":"19:00",
    "Zip_Code":78712,
    "Latitude":30.286086,
    "Longitude":-97.74033
  },
  {
    "Precinct":210,
    "Name":"O. Henry Middle School",
    "Combined_Pcts":"251",
    "Address":"2610 West 10th Street",
    "City":"Austin",
    "Start_Time":"7:00",
    "End_Time":"19:00",
    "Zip_Code":78703,
    "Latitude":30.285899,
    "Longitude":-97.774158
  },
  {
    "Precinct":211,
    "Name":"Walnut Creek Elementary School",
    "Combined_Pcts":"258",
    "Address":"401 West Braker Lane",
    "City":"Austin",
    "Start_Time":"7:00",
    "End_Time":"19:00",
    "Zip_Code":78753,
    "Latitude":30.37941,
    "Longitude":-97.684132
  },
  {
    "Precinct":216,
    "Name":"Northwest Elementary School",
    "Combined_Pcts":"",
    "Address":"14014 Thermal Drive",
    "City":"Austin",
    "Start_Time":"7:00",
    "End_Time":"19:00",
    "Zip_Code":78728,
    "Latitude":30.431732,
    "Longitude":-97.675793
  },
  {
    "Precinct":217,
    "Name":"Lanier High School",
    "Combined_Pcts":"223:224:260",
    "Address":"1201 Payton Gin Road",
    "City":"Austin",
    "Start_Time":"7:00",
    "End_Time":"19:00",
    "Zip_Code":78758,
    "Latitude":30.360795,
    "Longitude":-97.70781
  },
  {
    "Precinct":218,
    "Name":"ACC Northridge Campus",
    "Combined_Pcts":"",
    "Address":"11928 Stonehollow Drive",
    "City":"Austin",
    "Start_Time":"7:00",
    "End_Time":"19:00",
    "Zip_Code":78758,
    "Latitude":30.40319,
    "Longitude":-97.70448
  },
  {
    "Precinct":219,
    "Name":"Caldwell Elementary School",
    "Combined_Pcts":"",
    "Address":"1718 Picadilly Drive",
    "City":"Round Rock",
    "Start_Time":"7:00",
    "End_Time":"19:00",
    "Zip_Code":78664,
    "Latitude":30.468326,
    "Longitude":-97.655218
  },
  {
    "Precinct":221,
    "Name":"Bridge Point Elementary School",
    "Combined_Pcts":"212",
    "Address":"6401 Cedar Street",
    "City":"Austin",
    "Start_Time":"7:00",
    "End_Time":"19:00",
    "Zip_Code":78746,
    "Latitude":30.339621,
    "Longitude":-97.805743
  },
  {
    "Precinct":225,
    "Name":"Wells Branch MUD Recreation Center",
    "Combined_Pcts":"215:229",
    "Address":"3000 Shoreline Drive",
    "City":"Austin",
    "Start_Time":"7:00",
    "End_Time":"19:00",
    "Zip_Code":78728,
    "Latitude":30.45486,
    "Longitude":-97.683641
  },
  {
    "Precinct":227,
    "Name":"Villas of Bristol Heights Apartments",
    "Combined_Pcts":"226",
    "Address":"12041 Dessau Road",
    "City":"Austin",
    "Start_Time":"7:00",
    "End_Time":"19:00",
    "Zip_Code":78754,
    "Latitude":30.380821,
    "Longitude":-97.651912
  },
  {
    "Precinct":231,
    "Name":"Cat Mountain Homeowners Association",
    "Combined_Pcts":"213:220",
    "Address":"6007 Mount Bonnell Road",
    "City":"Austin",
    "Start_Time":"7:00",
    "End_Time":"19:00",
    "Zip_Code":78731,
    "Latitude":30.34868,
    "Longitude":-97.77976
  },
  {
    "Precinct":232,
    "Name":"Canyon Ridge Middle School",
    "Combined_Pcts":"",
    "Address":"12601 Country Trails Lane",
    "City":"Austin",
    "Start_Time":"7:00",
    "End_Time":"19:00",
    "Zip_Code":78732,
    "Latitude":30.364942,
    "Longitude":-97.902984
  },
  {
    "Precinct":233,
    "Name":"Shepherd of the Hills Christian Church",
    "Combined_Pcts":"",
    "Address":"6909 West Courtyard Drive",
    "City":"Austin",
    "Start_Time":"7:00",
    "End_Time":"19:00",
    "Zip_Code":78730,
    "Latitude":30.359962,
    "Longitude":-97.806052
  },
  {
    "Precinct":234,
    "Name":"River Place Elementary School",
    "Combined_Pcts":"",
    "Address":"6500 Sitio Del Rio Boulevard",
    "City":"Austin",
    "Start_Time":"7:00",
    "End_Time":"19:00",
    "Zip_Code":78730,
    "Latitude":30.391442,
    "Longitude":-97.842543
  },
  {
    "Precinct":235,
    "Name":"McCallum High School",
    "Combined_Pcts":"",
    "Address":"5600 Sunshine Drive",
    "City":"Austin",
    "Start_Time":"7:00",
    "End_Time":"19:00",
    "Zip_Code":78756,
    "Latitude":30.326897,
    "Longitude":-97.729247
  },
  {
    "Precinct":236,
    "Name":"Rosedale School",
    "Combined_Pcts":"",
    "Address":"2117 West 49th Street",
    "City":"Austin",
    "Start_Time":"7:00",
    "End_Time":"19:00",
    "Zip_Code":78756,
    "Latitude":30.320155,
    "Longitude":-97.74033
  },
  {
    "Precinct":237,
    "Name":"Highland Park Baptist Church",
    "Combined_Pcts":"240",
    "Address":"5206 Balcones Drive",
    "City":"Austin",
    "Start_Time":"7:00",
    "End_Time":"19:00",
    "Zip_Code":78731,
    "Latitude":30.335241,
    "Longitude":-97.760028
  },
  {
    "Precinct":238,
    "Name":"Murchison Middle School",
    "Combined_Pcts":"247",
    "Address":"3700 North Hills Drive",
    "City":"Austin",
    "Start_Time":"7:00",
    "End_Time":"19:00",
    "Zip_Code":78731,
    "Latitude":30.354148,
    "Longitude":-97.758869
  },
  {
    "Precinct":242,
    "Name":"Northwest Baptist Church",
    "Combined_Pcts":"239:241",
    "Address":"6301 Woodrow Avenue",
    "City":"Austin",
    "Start_Time":"7:00",
    "End_Time":"19:00",
    "Zip_Code":78757,
    "Latitude":30.334602,
    "Longitude":-97.729622
  },
  {
    "Precinct":243,
    "Name":"Ben Hur Shrine Center",
    "Combined_Pcts":"",
    "Address":"7811 Rockwood Lane",
    "City":"Austin",
    "Start_Time":"7:00",
    "End_Time":"19:00",
    "Zip_Code":78757,
    "Latitude":30.358129,
    "Longitude":-97.738055
  },
  {
    "Precinct":244,
    "Name":"Randalls Steiner Ranch",
    "Combined_Pcts":"",
    "Address":"5145 RM 620 North",
    "City":"Austin",
    "Start_Time":"7:00",
    "End_Time":"19:00",
    "Zip_Code":78732,
    "Latitude":30.389683,
    "Longitude":-97.885008
  },
  {
    "Precinct":245,
    "Name":"Grandview Hills Elementary School",
    "Combined_Pcts":"",
    "Address":"12024 Vista Parke Drive",
    "City":"Austin",
    "Start_Time":"7:00",
    "End_Time":"19:00",
    "Zip_Code":78726,
    "Latitude":30.416315,
    "Longitude":-97.852907
  },
  {
    "Precinct":249,
    "Name":"St. Matthews Episcopal Church",
    "Combined_Pcts":"246:262:253",
    "Address":"8134 Mesa Drive",
    "City":"Austin",
    "Start_Time":"7:00",
    "End_Time":"19:00",
    "Zip_Code":78759,
    "Latitude":30.374282,
    "Longitude":-97.756852
  },
  {
    "Precinct":250,
    "Name":"St. Luke United Methodist Church",
    "Combined_Pcts":"",
    "Address":"1306 West Lynn Street",
    "City":"Austin",
    "Start_Time":"7:00",
    "End_Time":"19:00",
    "Zip_Code":78703,
    "Latitude":30.281517,
    "Longitude":-97.758963
  },
  {
    "Precinct":252,
    "Name":"North Village Library",
    "Combined_Pcts":"248",
    "Address":"2505 Steck Avenue",
    "City":"Austin",
    "Start_Time":"7:00",
    "End_Time":"19:00",
    "Zip_Code":78757,
    "Latitude":30.36216,
    "Longitude":-97.73048
  },
  {
    "Precinct":254,
    "Name":"Emeritus at North Austin",
    "Combined_Pcts":"228:267",
    "Address":"5310 Duval Road",
    "City":"Austin",
    "Start_Time":"7:00",
    "End_Time":"19:00",
    "Zip_Code":78727,
    "Latitude":30.418998,
    "Longitude":-97.744288
  },
  {
    "Precinct":256,
    "Name":"Howson Branch Library",
    "Combined_Pcts":"266",
    "Address":"2500 Exposition Boulevard",
    "City":"Austin",
    "Start_Time":"7:00",
    "End_Time":"19:00",
    "Zip_Code":78703,
    "Latitude":30.2982,
    "Longitude":-97.7676
  },
  {
    "Precinct":263,
    "Name":"United Christian Church",
    "Combined_Pcts":"259",
    "Address":"3500 West Parmer Lane",
    "City":"Austin",
    "Start_Time":"7:00",
    "End_Time":"19:00",
    "Zip_Code":78727,
    "Latitude":30.423827,
    "Longitude":-97.709237
  },
  {
    "Precinct":268,
    "Name":"Grant AME Worship Center",
    "Combined_Pcts":"209:222",
    "Address":"1701 Kramer Lane",
    "City":"Austin",
    "Start_Time":"7:00",
    "End_Time":"19:00",
    "Zip_Code":78758,
    "Latitude":30.385372,
    "Longitude":-97.704377
  },
  {
    "Precinct":273,
    "Name":"Congregation Beth Israel",
    "Combined_Pcts":"214",
    "Address":"3901 Shoal Creek Blvd.",
    "City":"Austin",
    "Start_Time":"7:00",
    "End_Time":"19:00",
    "Zip_Code":78756,
    "Latitude":30.308337,
    "Longitude":-97.747378
  },
  {
    "Precinct":275,
    "Name":"Baker Center",
    "Combined_Pcts":"200:274",
    "Address":"3908 Avenue B (Enter off of 39th Street)",
    "City":"Austin",
    "Start_Time":"7:00",
    "End_Time":"19:00",
    "Zip_Code":78751,
    "Latitude":30.30393,
    "Longitude":-97.73588
  },
  {
    "Precinct":301,
    "Name":"Sunset Valley City Hall",
    "Combined_Pcts":"",
    "Address":"3205 Jones Road",
    "City":"Sunset Valley",
    "Start_Time":"7:00",
    "End_Time":"19:00",
    "Zip_Code":78745,
    "Latitude":30.22832,
    "Longitude":-97.81079
  },
  {
    "Precinct":302,
    "Name":"Bailey Middle School",
    "Combined_Pcts":"",
    "Address":"4020 Lost Oasis Hollow",
    "City":"Austin",
    "Start_Time":"7:00",
    "End_Time":"19:00",
    "Zip_Code":78739,
    "Latitude":30.164163,
    "Longitude":-97.872519
  },
  {
    "Precinct":303,
    "Name":"Oak Hill Primitive Baptist Church",
    "Combined_Pcts":"",
    "Address":"11408 FM 1826",
    "City":"Austin",
    "Start_Time":"7:00",
    "End_Time":"19:00",
    "Zip_Code":78737,
    "Latitude":30.197381,
    "Longitude":-97.923911
  },
  {
    "Precinct":304,
    "Name":"Kiker Elementary School",
    "Combined_Pcts":"",
    "Address":"5913 La Crosse Avenue",
    "City":"Austin",
    "Start_Time":"7:00",
    "End_Time":"19:00",
    "Zip_Code":78739,
    "Latitude":30.191676,
    "Longitude":-97.881247
  },
  {
    "Precinct":307,
    "Name":"Rollingwood Municipal Building",
    "Combined_Pcts":"356",
    "Address":"403 Nixon Drive",
    "City":"Rollingwood",
    "Start_Time":"7:00",
    "End_Time":"19:00",
    "Zip_Code":78746,
    "Latitude":30.275682,
    "Longitude":-97.788588
  },
  {
    "Precinct":308,
    "Name":"Briarcliff P.O.A. Community Center",
    "Combined_Pcts":"",
    "Address":"22801 Briarcliff Drive",
    "City":"Briarcliff",
    "Start_Time":"7:00",
    "End_Time":"19:00",
    "Zip_Code":78669,
    "Latitude":30.406576,
    "Longitude":-98.057163
  },
  {
    "Precinct":310,
    "Name":"Manchaca United Methodist Church",
    "Combined_Pcts":"",
    "Address":"1011 FM 1626",
    "City":"Manchaca",
    "Start_Time":"7:00",
    "End_Time":"19:00",
    "Zip_Code":78652,
    "Latitude":30.14004,
    "Longitude":-97.83239
  },
  {
    "Precinct":312,
    "Name":"Travis County Sheriff's Office",
    "Combined_Pcts":"",
    "Address":"3800 Hudson Bend Road",
    "City":"Austin",
    "Start_Time":"7:00",
    "End_Time":"19:00",
    "Zip_Code":78734,
    "Latitude":30.39844,
    "Longitude":-97.92954
  },
  {
    "Precinct":313,
    "Name":"Senior Activity Center",
    "Combined_Pcts":"311",
    "Address":"2874 Shoal Crest Avenue",
    "City":"Austin",
    "Start_Time":"7:00",
    "End_Time":"19:00",
    "Zip_Code":78705,
    "Latitude":30.297444,
    "Longitude":-97.748494
  },
  {
    "Precinct":314,
    "Name":"Oak Hill Fire Dept. Barton Creek Station",
    "Combined_Pcts":"",
    "Address":"4111 Barton Creek Boulevard",
    "City":"Austin",
    "Start_Time":"7:00",
    "End_Time":"19:00",
    "Zip_Code":78735,
    "Latitude":30.279022,
    "Longitude":-97.883195
  },
  {
    "Precinct":315,
    "Name":"Villages Amenities Center",
    "Combined_Pcts":"",
    "Address":"12006 Gatling Gun Lane",
    "City":"Austin",
    "Start_Time":"7:00",
    "End_Time":"19:00",
    "Zip_Code":78748,
    "Latitude":30.154001,
    "Longitude":-97.854061
  },
  {
    "Precinct":316,
    "Name":"Travis County Parks Office",
    "Combined_Pcts":"",
    "Address":"14624 Hamilton Pool Road",
    "City":"Austin",
    "Start_Time":"7:00",
    "End_Time":"19:00",
    "Zip_Code":78738,
    "Latitude":30.30758,
    "Longitude":-97.972869
  },
  {
    "Precinct":317,
    "Name":"Lost Creek MUD Office",
    "Combined_Pcts":"",
    "Address":"1305 Quaker Ridge Drive",
    "City":"Austin",
    "Start_Time":"7:00",
    "End_Time":"19:00",
    "Zip_Code":78746,
    "Latitude":30.28377,
    "Longitude":-97.83352
  },
  {
    "Precinct":319,
    "Name":"Lakeway Activity Center",
    "Combined_Pcts":"306",
    "Address":"105 Cross Creek Drive",
    "City":"Lakeway",
    "Start_Time":"7:00",
    "End_Time":"19:00",
    "Zip_Code":78734,
    "Latitude":30.362589,
    "Longitude":-97.981294
  },
  {
    "Precinct":320,
    "Name":"Randalls Lakeway",
    "Combined_Pcts":"",
    "Address":"2301 RR 620 South",
    "City":"Lakeway",
    "Start_Time":"7:00",
    "End_Time":"19:00",
    "Zip_Code":78734,
    "Latitude":30.341584,
    "Longitude":-97.966429
  },
  {
    "Precinct":323,
    "Name":"Randalls Research and Braker",
    "Combined_Pcts":"305:321:345",
    "Address":"10900-D Research Boulevard",
    "City":"Austin",
    "Start_Time":"7:00",
    "End_Time":"19:00",
    "Zip_Code":78759,
    "Latitude":30.401991,
    "Longitude":-97.747132
  },
  {
    "Precinct":324,
    "Name":"Bee Cave City Hall",
    "Combined_Pcts":"368",
    "Address":"4000 Galleria Parkway",
    "City":"Bee Cave",
    "Start_Time":"7:00",
    "End_Time":"19:00",
    "Zip_Code":78738,
    "Latitude":30.308171,
    "Longitude":-97.939939
  },
  {
    "Precinct":327,
    "Name":"Austin Fire Station #33",
    "Combined_Pcts":"",
    "Address":"9409 Bluegrass Drive",
    "City":"Austin",
    "Start_Time":"7:00",
    "End_Time":"19:00",
    "Zip_Code":78759,
    "Latitude":30.39917,
    "Longitude":-97.76718
  },
  {
    "Precinct":328,
    "Name":"Renaissance Retirement Center",
    "Combined_Pcts":"",
    "Address":"11279 Taylor Draper Lane",
    "City":"Austin",
    "Start_Time":"7:00",
    "End_Time":"19:00",
    "Zip_Code":78759,
    "Latitude":30.413052,
    "Longitude":-97.751563
  },
  {
    "Precinct":329,
    "Name":"Austin City Hall",
    "Combined_Pcts":"325",
    "Address":"301 West 2nd Street (Media Room)",
    "City":"Austin",
    "Start_Time":"7:00",
    "End_Time":"19:00",
    "Zip_Code":78701,
    "Latitude":30.264553,
    "Longitude":-97.747271
  },
  {
    "Precinct":330,
    "Name":"Laura's Library",
    "Combined_Pcts":"318:357",
    "Address":"9411 Bee Cave Road",
    "City":"Austin",
    "Start_Time":"7:00",
    "End_Time":"19:00",
    "Zip_Code":78733,
    "Latitude":30.315636,
    "Longitude":-97.871361
  },
  {
    "Precinct":331,
    "Name":"Kathy Caraway Elementary School",
    "Combined_Pcts":"326",
    "Address":"11104 Oak View Drive (Enter off of Carlwood)",
    "City":"Austin",
    "Start_Time":"7:00",
    "End_Time":"19:00",
    "Zip_Code":78759,
    "Latitude":30.419868,
    "Longitude":-97.769276
  },
  {
    "Precinct":332,
    "Name":"Zilker Elementary School",
    "Combined_Pcts":"340:341:342",
    "Address":"1900 Bluebonnet Lane",
    "City":"Austin",
    "Start_Time":"7:00",
    "End_Time":"19:00",
    "Zip_Code":78704,
    "Latitude":30.252849,
    "Longitude":-97.774673
  },
  {
    "Precinct":334,
    "Name":"Pickfair Community Center",
    "Combined_Pcts":"",
    "Address":"10904 Pickfair Drive",
    "City":"Austin",
    "Start_Time":"7:00",
    "End_Time":"19:00",
    "Zip_Code":78750,
    "Latitude":30.439332,
    "Longitude":-97.811033
  },
  {
    "Precinct":335,
    "Name":"Canyon Vista Middle School",
    "Combined_Pcts":"336",
    "Address":"8455 Spicewood Springs Road",
    "City":"Austin",
    "Start_Time":"7:00",
    "End_Time":"19:00",
    "Zip_Code":78759,
    "Latitude":30.42824,
    "Longitude":-97.784168
  },
  {
    "Precinct":337,
    "Name":"Lakewood Homeowners Association",
    "Combined_Pcts":"",
    "Address":"7317 Lakewood Drive",
    "City":"Austin",
    "Start_Time":"7:00",
    "End_Time":"19:00",
    "Zip_Code":78750,
    "Latitude":30.375404,
    "Longitude":-97.788902
  },
  {
    "Precinct":338,
    "Name":"Travis County WCID #18",
    "Combined_Pcts":"",
    "Address":"1502 San Juan Drive",
    "City":"Austin",
    "Start_Time":"7:00",
    "End_Time":"19:00",
    "Zip_Code":78733,
    "Latitude":30.339343,
    "Longitude":-97.866662
  },
  {
    "Precinct":339,
    "Name":"Western Hills Church of Christ",
    "Combined_Pcts":"",
    "Address":"6211 Parkwood Drive",
    "City":"Austin",
    "Start_Time":"7:00",
    "End_Time":"19:00",
    "Zip_Code":78735,
    "Latitude":30.236989,
    "Longitude":-97.855077
  },
  {
    "Precinct":343,
    "Name":"Church at Canyon Creek",
    "Combined_Pcts":"333",
    "Address":"9001 FM 620 North",
    "City":"Austin",
    "Start_Time":"7:00",
    "End_Time":"19:00",
    "Zip_Code":78726,
    "Latitude":30.429286,
    "Longitude":-97.840891
  },
  {
    "Precinct":344,
    "Name":"Cunningham Elementary School",
    "Combined_Pcts":"",
    "Address":"2200 Berkeley Avenue",
    "City":"Austin",
    "Start_Time":"7:00",
    "End_Time":"19:00",
    "Zip_Code":78745,
    "Latitude":30.210672,
    "Longitude":-97.805808
  },
  {
    "Precinct":346,
    "Name":"Serene Hills Elementary School",
    "Combined_Pcts":"",
    "Address":"3301 Serene Hills Drive",
    "City":"Austin",
    "Start_Time":"7:00",
    "End_Time":"19:00",
    "Zip_Code":78738,
    "Latitude":30.348704,
    "Longitude":-97.99618
  },
  {
    "Precinct":349,
    "Name":"ACC Pinnacle Campus",
    "Combined_Pcts":"",
    "Address":"7748 Highway 290 West",
    "City":"Austin",
    "Start_Time":"7:00",
    "End_Time":"19:00",
    "Zip_Code":78736,
    "Latitude":30.23149,
    "Longitude":-97.88354
  },
  {
    "Precinct":350,
    "Name":"Randalls Brodie and Slaughter",
    "Combined_Pcts":"309:360",
    "Address":"9911 Brodie Lane",
    "City":"Austin",
    "Start_Time":"7:00",
    "End_Time":"19:00",
    "Zip_Code":78748,
    "Latitude":30.184057,
    "Longitude":-97.847993
  },
  {
    "Precinct":351,
    "Name":"Randalls South Mopac and William Cannon",
    "Combined_Pcts":"363",
    "Address":"6600 South Mopac Expressway",
    "City":"Austin",
    "Start_Time":"7:00",
    "End_Time":"19:00",
    "Zip_Code":78749,
    "Latitude":30.22278,
    "Longitude":-97.836277
  },
  {
    "Precinct":354,
    "Name":"Travis Country Office (H.O.A.)",
    "Combined_Pcts":"",
    "Address":"4504 Travis Country Circle",
    "City":"Austin",
    "Start_Time":"7:00",
    "End_Time":"19:00",
    "Zip_Code":78735,
    "Latitude":30.245949,
    "Longitude":-97.827448
  },
  {
    "Precinct":358,
    "Name":"Covington Middle School",
    "Combined_Pcts":"352",
    "Address":"3700 Convict Hill Road",
    "City":"Austin",
    "Start_Time":"7:00",
    "End_Time":"19:00",
    "Zip_Code":78749,
    "Latitude":30.212073,
    "Longitude":-97.834582
  },
  {
    "Precinct":359,
    "Name":"Lake Travis ISD Educational Development Ctr.",
    "Combined_Pcts":"",
    "Address":"607 RR 620 North (Enter off of Kollmeyer Dr)",
    "City":"Austin",
    "Start_Time":"7:00",
    "End_Time":"19:00",
    "Zip_Code":78734,
    "Latitude":30.370589,
    "Longitude":-97.946591
  },
  {
    "Precinct":361,
    "Name":"Oak Hill Fire Dept. Station #301",
    "Combined_Pcts":"",
    "Address":"9211 Circle Drive",
    "City":"Austin",
    "Start_Time":"7:00",
    "End_Time":"19:00",
    "Zip_Code":78736,
    "Latitude":30.239456,
    "Longitude":-97.919694
  },
  {
    "Precinct":362,
    "Name":"Will Hampton Branch Public Library",
    "Combined_Pcts":"",
    "Address":"5125 Convict Hill Road",
    "City":"Austin",
    "Start_Time":"7:00",
    "End_Time":"19:00",
    "Zip_Code":78749,
    "Latitude":30.217702,
    "Longitude":-97.854999
  },
  {
    "Precinct":364,
    "Name":"Randalls Flagship West Lake Hills",
    "Combined_Pcts":"347",
    "Address":"3300 Bee Cave Road",
    "City":"West Lake Hills",
    "Start_Time":"7:00",
    "End_Time":"19:00",
    "Zip_Code":78746,
    "Latitude":30.275376,
    "Longitude":-97.798812
  },
  {
    "Precinct":365,
    "Name":"West Rural Community Center",
    "Combined_Pcts":"",
    "Address":"8656 Highway 71 West, #A",
    "City":"Austin",
    "Start_Time":"7:00",
    "End_Time":"19:00",
    "Zip_Code":78735,
    "Latitude":30.251449,
    "Longitude":-97.893596
  },
  {
    "Precinct":366,
    "Name":"Mills Elementary School",
    "Combined_Pcts":"",
    "Address":"6201 Davis Lane",
    "City":"Austin",
    "Start_Time":"7:00",
    "End_Time":"19:00",
    "Zip_Code":78749,
    "Latitude":30.21111,
    "Longitude":-97.87819
  },
  {
    "Precinct":367,
    "Name":"Clayton Elementary School",
    "Combined_Pcts":"",
    "Address":"7525 La Crosse Avenue",
    "City":"Austin",
    "Start_Time":"7:00",
    "End_Time":"19:00",
    "Zip_Code":78739,
    "Latitude":30.195113,
    "Longitude":-97.906573
  },
  {
    "Precinct":369,
    "Name":"Christ Episcopal Church",
    "Combined_Pcts":"",
    "Address":"3520 West Whitestone Boulevard",
    "City":"Cedar Park",
    "Start_Time":"7:00",
    "End_Time":"19:00",
    "Zip_Code":78613,
    "Latitude":30.51066,
    "Longitude":-97.881317
  },
  {
    "Precinct":370,
    "Name":"Round Mountain Community Center",
    "Combined_Pcts":"",
    "Address":"14340 Round Mountain Road",
    "City":"Leander",
    "Start_Time":"7:00",
    "End_Time":"19:00",
    "Zip_Code":78641,
    "Latitude":30.572025,
    "Longitude":-97.949408
  },
  {
    "Precinct":371,
    "Name":"Lago Vista High School",
    "Combined_Pcts":"",
    "Address":"8039 Bar-K Ranch Road",
    "City":"Lago Vista",
    "Start_Time":"7:00",
    "End_Time":"19:00",
    "Zip_Code":78645,
    "Latitude":30.480356,
    "Longitude":-97.97788
  },
  {
    "Precinct":372,
    "Name":"Community Center at Jonestown",
    "Combined_Pcts":"",
    "Address":"18649 FM 1431, Suite 6A",
    "City":"Jonestown",
    "Start_Time":"7:00",
    "End_Time":"19:00",
    "Zip_Code":78645,
    "Latitude":30.491765,
    "Longitude":-97.923803
  },
  {
    "Precinct":373,
    "Name":"Lago Vista City Hall",
    "Combined_Pcts":"",
    "Address":"5803 Thunderbird Street",
    "City":"Lago Vista",
    "Start_Time":"7:00",
    "End_Time":"19:00",
    "Zip_Code":78645,
    "Latitude":30.453007,
    "Longitude":-97.987372
  },
  {
    "Precinct":374,
    "Name":"Deer Creek Elementary School",
    "Combined_Pcts":"",
    "Address":"2420 Zeppelin Drive",
    "City":"Cedar Park",
    "Start_Time":"7:00",
    "End_Time":"19:00",
    "Zip_Code":78613,
    "Latitude":30.482584,
    "Longitude":-97.853111
  },
  {
    "Precinct":375,
    "Name":"Village of Volente City Hall",
    "Combined_Pcts":"",
    "Address":"16100 Wharf Cove",
    "City":"Volente",
    "Start_Time":"7:00",
    "End_Time":"19:00",
    "Zip_Code":78641,
    "Latitude":30.442042,
    "Longitude":-97.912598
  },
  {
    "Precinct":401,
    "Name":"Del Valle ISD Administration Building",
    "Combined_Pcts":"",
    "Address":"5301 Ross Road",
    "City":"Del Valle",
    "Start_Time":"7:00",
    "End_Time":"19:00",
    "Zip_Code":78617,
    "Latitude":30.176036,
    "Longitude":-97.613418
  },
  {
    "Precinct":402,
    "Name":"Elroy Community Library",
    "Combined_Pcts":"",
    "Address":"13512 FM 812",
    "City":"Del Valle",
    "Start_Time":"7:00",
    "End_Time":"19:00",
    "Zip_Code":78617,
    "Latitude":30.123925,
    "Longitude":-97.638577
  },
  {
    "Precinct":403,
    "Name":"Creedmoor Elementary School",
    "Combined_Pcts":"",
    "Address":"5604 FM 1327",
    "City":"Creedmoor",
    "Start_Time":"7:00",
    "End_Time":"19:00",
    "Zip_Code":78610,
    "Latitude":30.091023,
    "Longitude":-97.720942
  },
  {
    "Precinct":404,
    "Name":"Blazier Elementary School",
    "Combined_Pcts":"",
    "Address":"8601 Vertex Boulevard",
    "City":"Austin",
    "Start_Time":"7:00",
    "End_Time":"19:00",
    "Zip_Code":78744,
    "Latitude":30.156149,
    "Longitude":-97.751992
  },
  {
    "Precinct":405,
    "Name":"Ojeda Middle School",
    "Combined_Pcts":"",
    "Address":"4900 McKinney Falls Parkway",
    "City":"Austin",
    "Start_Time":"7:00",
    "End_Time":"19:00",
    "Zip_Code":78744,
    "Latitude":30.190467,
    "Longitude":-97.712574
  },
  {
    "Precinct":406,
    "Name":"St. Alban's Episcopal Church",
    "Combined_Pcts":"417",
    "Address":"11819 IH 35 South",
    "City":"Austin",
    "Start_Time":"7:00",
    "End_Time":"19:00",
    "Zip_Code":78747,
    "Latitude":30.129774,
    "Longitude":-97.798171
  },
  {
    "Precinct":407,
    "Name":"South Rural Community Center",
    "Combined_Pcts":"",
    "Address":"3518 South FM 973",
    "City":"Del Valle",
    "Start_Time":"7:00",
    "End_Time":"19:00",
    "Zip_Code":78617,
    "Latitude":30.198738,
    "Longitude":-97.642107
  },
  {
    "Precinct":409,
    "Name":"Galindo Elementary School",
    "Combined_Pcts":"",
    "Address":"3800 South 2nd Street",
    "City":"Austin",
    "Start_Time":"7:00",
    "End_Time":"19:00",
    "Zip_Code":78704,
    "Latitude":30.22935,
    "Longitude":-97.77153
  },
  {
    "Precinct":414,
    "Name":"Texas Oaks Baptist Church",
    "Combined_Pcts":"",
    "Address":"9910 Bilbrook Place",
    "City":"Austin",
    "Start_Time":"7:00",
    "End_Time":"19:00",
    "Zip_Code":78748,
    "Latitude":30.17055,
    "Longitude":-97.81739
  },
  {
    "Precinct":415,
    "Name":"Casey Elementary School",
    "Combined_Pcts":"",
    "Address":"9400 Texas Oaks Drive",
    "City":"Austin",
    "Start_Time":"7:00",
    "End_Time":"19:00",
    "Zip_Code":78748,
    "Latitude":30.176994,
    "Longitude":-97.814841
  },
  {
    "Precinct":416,
    "Name":"Akins High School",
    "Combined_Pcts":"411",
    "Address":"10701 South 1st Street",
    "City":"Austin",
    "Start_Time":"7:00",
    "End_Time":"19:00",
    "Zip_Code":78748,
    "Latitude":30.148542,
    "Longitude":-97.801489
  },
  {
    "Precinct":420,
    "Name":"Parker Lane United Methodist Church",
    "Combined_Pcts":"440",
    "Address":"2105 Parker Lane",
    "City":"Austin",
    "Start_Time":"7:00",
    "End_Time":"19:00",
    "Zip_Code":78741,
    "Latitude":30.23332,
    "Longitude":-97.73481
  },
  {
    "Precinct":421,
    "Name":"Congress Avenue Baptist Church",
    "Combined_Pcts":"",
    "Address":"1511 South Congress Avenue",
    "City":"Austin",
    "Start_Time":"7:00",
    "End_Time":"19:00",
    "Zip_Code":78704,
    "Latitude":30.248493,
    "Longitude":-97.74946
  },
  {
    "Precinct":422,
    "Name":"Fulmore Middle School",
    "Combined_Pcts":"",
    "Address":"201 East Mary Street",
    "City":"Austin",
    "Start_Time":"7:00",
    "End_Time":"19:00",
    "Zip_Code":78704,
    "Latitude":30.24424,
    "Longitude":-97.749948
  },
  {
    "Precinct":423,
    "Name":"Montopolis Recreation Center",
    "Combined_Pcts":"",
    "Address":"1200 Montopolis Drive",
    "City":"Austin",
    "Start_Time":"7:00",
    "End_Time":"19:00",
    "Zip_Code":78741,
    "Latitude":30.232282,
    "Longitude":-97.700129
  },
  {
    "Precinct":424,
    "Name":"HEB South Congress",
    "Combined_Pcts":"",
    "Address":"2400 South Congress Avenue",
    "City":"Austin",
    "Start_Time":"7:00",
    "End_Time":"19:00",
    "Zip_Code":78704,
    "Latitude":30.239642,
    "Longitude":-97.755452
  },
  {
    "Precinct":426,
    "Name":"Govalle Elementary School",
    "Combined_Pcts":"427:436:444",
    "Address":"3601 Govalle Avenue",
    "City":"Austin",
    "Start_Time":"7:00",
    "End_Time":"19:00",
    "Zip_Code":78702,
    "Latitude":30.264386,
    "Longitude":-97.698573
  },
  {
    "Precinct":429,
    "Name":"Dan Ruiz Branch Public Library",
    "Combined_Pcts":"",
    "Address":"1600 Grove Boulevard",
    "City":"Austin",
    "Start_Time":"7:00",
    "End_Time":"19:00",
    "Zip_Code":78741,
    "Latitude":30.229915,
    "Longitude":-97.706995
  },
  {
    "Precinct":431,
    "Name":"Baty Elementary School",
    "Combined_Pcts":"",
    "Address":"2101 Faro Drive",
    "City":"Austin",
    "Start_Time":"7:00",
    "End_Time":"19:00",
    "Zip_Code":78741,
    "Latitude":30.226785,
    "Longitude":-97.714055
  },
  {
    "Precinct":433,
    "Name":"Travis High School",
    "Combined_Pcts":"442",
    "Address":"1211 East Oltorf Street",
    "City":"Austin",
    "Start_Time":"7:00",
    "End_Time":"19:00",
    "Zip_Code":78704,
    "Latitude":30.234034,
    "Longitude":-97.743269
  },
  {
    "Precinct":435,
    "Name":"Southwest Church of Christ",
    "Combined_Pcts":"408",
    "Address":"8900 Manchaca Road",
    "City":"Austin",
    "Start_Time":"7:00",
    "End_Time":"19:00",
    "Zip_Code":78748,
    "Latitude":30.183882,
    "Longitude":-97.818639
  },
  {
    "Precinct":437,
    "Name":"Twin Oaks Branch Library",
    "Combined_Pcts":"",
    "Address":"1800 South 5th Street",
    "City":"Austin",
    "Start_Time":"7:00",
    "End_Time":"19:00",
    "Zip_Code":78704,
    "Latitude":30.248734,
    "Longitude":-97.76227
  },
  {
    "Precinct":438,
    "Name":"Sanchez Elementary School",
    "Combined_Pcts":"428:432:434",
    "Address":"73 San Marcos Street",
    "City":"Austin",
    "Start_Time":"7:00",
    "End_Time":"19:00",
    "Zip_Code":78702,
    "Latitude":30.2579,
    "Longitude":-97.73539
  },
  {
    "Precinct":439,
    "Name":"Cantu/Pan Am Recreation Center",
    "Combined_Pcts":"",
    "Address":"2100 East 3rd Street",
    "City":"Austin",
    "Start_Time":"7:00",
    "End_Time":"19:00",
    "Zip_Code":78702,
    "Latitude":30.258039,
    "Longitude":-97.720878
  },
  {
    "Precinct":441,
    "Name":"Fiesta Mart Stassney",
    "Combined_Pcts":"410:425:446",
    "Address":"5510 South IH 35",
    "City":"Austin",
    "Start_Time":"7:00",
    "End_Time":"19:00",
    "Zip_Code":78745,
    "Latitude":30.20035,
    "Longitude":-97.76433
  },
  {
    "Precinct":447,
    "Name":"Odom Elementary School",
    "Combined_Pcts":"419",
    "Address":"1010 Turtle Creek Boulevard",
    "City":"Austin",
    "Start_Time":"7:00",
    "End_Time":"19:00",
    "Zip_Code":78745,
    "Latitude":30.205599,
    "Longitude":-97.789521
  },
  {
    "Precinct":448,
    "Name":"Langford Elementary School",
    "Combined_Pcts":"413:418",
    "Address":"2206 Blue Meadow Drive",
    "City":"Austin",
    "Start_Time":"7:00",
    "End_Time":"19:00",
    "Zip_Code":78744,
    "Latitude":30.18201,
    "Longitude":-97.76328
  },
  {
    "Precinct":450,
    "Name":"Southeast Branch Public Library",
    "Combined_Pcts":"443",
    "Address":"5803 Nuckols Crossing Road",
    "City":"Austin",
    "Start_Time":"7:00",
    "End_Time":"19:00",
    "Zip_Code":78744,
    "Latitude":30.187583,
    "Longitude":-97.74195
  },
  {
    "Precinct":451,
    "Name":"Bedichek Middle School",
    "Combined_Pcts":"",
    "Address":"6800 Bill Hughes Road",
    "City":"Austin",
    "Start_Time":"7:00",
    "End_Time":"19:00",
    "Zip_Code":78745,
    "Latitude":30.19392,
    "Longitude":-97.7873
  },
  {
    "Precinct":452,
    "Name":"Houston Elementary School",
    "Combined_Pcts":"",
    "Address":"5409 Ponciana Drive",
    "City":"Austin",
    "Start_Time":"7:00",
    "End_Time":"19:00",
    "Zip_Code":78744,
    "Latitude":30.197837,
    "Longitude":-97.75495
  },
  {
    "Precinct":454,
    "Name":"Randalls Ben White",
    "Combined_Pcts":"412",
    "Address":"2025 West Ben White Boulevard",
    "City":"Austin",
    "Start_Time":"7:00",
    "End_Time":"19:00",
    "Zip_Code":78704,
    "Latitude":30.229437,
    "Longitude":-97.790074
  },
  {
    "Precinct":460,
    "Name":"ACC South Austin Campus",
    "Combined_Pcts":"458",
    "Address":"1820 West Stassney Lane",
    "City":"Austin",
    "Start_Time":"7:00",
    "End_Time":"19:00",
    "Zip_Code":78745,
    "Latitude":30.215365,
    "Longitude":-97.796219
  },
  {
    "Precinct":461,
    "Name":"Wheatsville Food Co-op",
    "Combined_Pcts":"430",
    "Address":"4001 South Lamar Blvd.",
    "City":"Austin",
    "Start_Time":"7:00",
    "End_Time":"19:00",
    "Zip_Code":78704,
    "Latitude":30.235728,
    "Longitude":-97.791032
  },
  {
    "Precinct":463,
    "Name":"Williams Elementary School",
    "Combined_Pcts":"",
    "Address":"500 Mairo Street",
    "City":"Austin",
    "Start_Time":"7:00",
    "End_Time":"19:00",
    "Zip_Code":78748,
    "Latitude":30.18116,
    "Longitude":-97.791506
  }
]